{
  "items": [
    {
      "displayName": "Osaka (Japan)",
      "name": "Osaka",
      "latitude": "34.75003522",
      "longitude": "135.4601448"
    },
    {
      "displayName": "Hong Kong (East Asia)",
      "name": "Hong Kong",
      "latitude": "22.3049809",
      "longitude": "114.1850093"
    },
    {
      "displayName": "Singapore (South East Asia)",
      "name": "Singapore",
      "latitude": "1.293033466",
      "longitude": "103.8558207"
    },
    {
      "displayName": "Texas (South Central US)",
      "name": "Texas",
      "latitude": "29.48733319",
      "longitude": "-98.50730534"
    },
    {
      "displayName": "California (West US)",
      "name": "California",
      "latitude": "36.7477169",
      "longitude": "-119.7729841"
    },
    {
      "displayName": "Virginia (East US)",
      "name": "Virginia",
      "latitude": "37.55001935",
      "longitude": "-77.449986"
    },
    {
      "displayName": "Illinois (North Central US)",
      "name": "Illinois",
      "latitude": "41.82999066",
      "longitude": "-87.75005497"
    },
    {
      "displayName": "Ireland (North Europe)",
      "name": "Ireland",
      "latitude": "53.33306114",
      "longitude": "-6.248905682"
    },
    {
      "displayName": "Victoria (Australia Southeast)",
      "name": "Victoria",
      "latitude": "-37.82003131",
      "longitude": "144.9750162"
    },
    {
      "displayName": "New South Wales (Australia East)",
      "name": "New South Wales",
      "latitude": "-33.92001097",
      "longitude": "151.1851798"
    },
    {
      "displayName": "Tokyo (Japan East)",
      "name": "Tokyo",
      "latitude": "35.91769004",
      "longitude": "139.4910616"
    },
    {
      "displayName": "Sao Paulo State (Brazil South)",
      "name": "Sao Paulo State",
      "latitude": "-23.55867959",
      "longitude": "-46.62501998"
    },
    {
      "displayName": "Beijing (China North)",
      "name": "Beijing",
      "latitude": "39.92889223",
      "longitude": "116.3882857"
    },
    {
      "displayName": "Netherlands (West Europe)",
      "name": "Netherlands",
      "latitude": "52.34996869",
      "longitude": "4.916640176"
    },
    {
      "displayName": "Wyoming (West Central US)",
      "name": "Wyoming",
      "latitude": "44.75867495",
      "longitude": "-108.7584367"
    },
    {
      "displayName": "Shanghai (China East)",
      "name": "Shanghai",
      "latitude": "31.21645245",
      "longitude": "121.4365047"
    },
    {
      "displayName": "Pune (Central India)",
      "name": "Pune",
      "latitude": "18.53001752",
      "longitude": "73.85000362"
    },
    {
      "displayName": "Frankfurt (Germany Central)",
      "name": "Frankfurt",
      "latitude": "50.09997683",
      "longitude": "8.67501542"
    },
    {
      "displayName": "Cardiff (UK West)",
      "name": "Cardiff",
      "latitude": "51.49999473",
      "longitude": "-3.22500757"
    },
    {
      "displayName": "Washington (West US)",
      "name": "Washington",
      "latitude": "47.6076",
      "longitude": "-122.3420"
    },
    {
      "displayName": "Mumbai (West India)",
      "name": "Mumbai",
      "latitude": "19.01699038",
      "longitude": "72.8569893"
    },
    {
      "displayName": "Chennai (South India)",
      "name": "Chennai",
      "latitude": "13.08998781",
      "longitude": "80.27999874"
    },
    {
      "displayName": "Quebec City (Canada East)",
      "name": "Quebec City",
      "latitude": "46.83996909",
      "longitude": "-71.24561019"
    },
    {
      "displayName": "Seoul (Korea Central)",
      "name": "Seoul",
      "latitude": "37.5663491",
      "longitude": "126.999731"
    },
    {
      "displayName": "Busan (Korea South)",
      "name": "Busan",
      "latitude": "35.09505292",
      "longitude": "129.0100476"
    },
    {
      "displayName": "Iowa (Central US)",
      "name": "Iowa",
      "latitude": "41.66108624",
      "longitude": "-91.52997929"
    },
    {
      "displayName": "London (UK South)",
      "name": "London",
      "latitude": "51.49999473",
      "longitude": "-0.116721844"
    },
    {
      "displayName": "Magdeburg (Germany Northeast)",
      "name": "Magdeburg",
      "latitude": "52.13042137",
      "longitude": "11.62000362"
    },
    {
      "displayName": "Texas (US Texas)",
      "name": "Texas",
      "latitude": "29.41087791",
      "longitude": "-94.96276717"
    }
  ]
}
