{
  "items": [
    {
      "name": "Japan West",
      "latitude": "34.75003522",
      "longitude": "135.4601448"
    },
    {
      "name": "East Asia",
      "latitude": "22.3049809",
      "longitude": "114.1850093"
    },
    {
      "name": "South East Asia",
      "latitude": "1.293033466",
      "longitude": "103.8558207"
    },
    {
      "name": "South Central US",
      "latitude": "29.48733319",
      "longitude": "-98.50730534"
    },
    {
      "name": "West US",
      "latitude": "36.7477169",
      "longitude": "-119.7729841"
    },
    {
      "name": "East US",
      "latitude": "37.55001935",
      "longitude": "-77.449986"
    },
    {
      "name": "North Central US",
      "latitude": "41.82999066",
      "longitude": "-87.75005497"
    },
    {
      "name": "North Europe",
      "latitude": "53.33306114",
      "longitude": "-6.248905682"
    },
    {
      "name": "Australia Southeast",
      "latitude": "-37.82003131",
      "longitude": "144.9750162"
    },
    {
      "name": "Australia East",
      "latitude": "-33.92001097",
      "longitude": "151.1851798"
    },
    {
      "name": "Japan East",
      "latitude": "35.91769004",
      "longitude": "139.4910616"
    },
    {
      "name": "Brazil South",
      "latitude": "-23.55867959",
      "longitude": "-46.62501998"
    },
    {
      "name": "East US 2",
      "latitude": "31.21645245",
      "longitude": "121.4365047"
    },
    {
      "name": "West Europe",
      "latitude": "52.34996869",
      "longitude": "4.916640176"
    },
    {
      "name": "West Central US",
      "latitude": "44.75867495",
      "longitude": "-108.7584367"
    },
    {
      "name": "Central India",
      "latitude": "18.53001752",
      "longitude": "73.85000362"
    },
    {
      "name": "UK West",
      "latitude": "51.49999473",
      "longitude": "-3.22500757"
    },
    {
      "name": "West US 2",
      "latitude": "47.6076",
      "longitude": "-122.3420"
    },
    {
      "name": "West India",
      "latitude": "19.01699038",
      "longitude": "72.8569893"
    },
    {
      "name": "South India",
      "latitude": "13.08998781",
      "longitude": "80.27999874"
    },
    {
      "name": "Canada East",
      "latitude": "46.83996909",
      "longitude": "-71.24561019"
    },
    {
      "name": "Korea Central",
      "latitude": "37.5663491",
      "longitude": "126.999731"
    },
    {
      "name": "Korea South",
      "latitude": "35.09505292",
      "longitude": "129.0100476"
    },
    {
      "name": "Central US",
      "latitude": "41.66108624",
      "longitude": "-91.52997929"
    },
    {
      "name": "UK South",
      "latitude": "51.49999473",
      "longitude": "-0.116721844"
    },
    {
      "name": "Canada Central",
      "latitude": "43.653",
      "longitude": "-79.383"
    },
    {
      "name": "France Central",
      "latitude": "46.3772",
      "longitude": "2.3730"
    },
    {
      "name": "Australia Central",
      "latitude": "-35.3075",
      "longitude": "149.1244"
    },
    {
      "name": "UAE Central",
      "latitude": "24.466667",
      "longitude": "54.366669"
    },
    {
      "name": "UAE North",
      "latitude": "25.266666",
      "longitude": "55.316666"
    },
    {
      "name": "South Africa North",
      "latitude": "-25.731340",
      "longitude": "28.218370"
    },
    {
      "name": "South Africa West",
      "latitude": "-34.075691",
      "longitude": "18.843266"
    },
    {
      "name": "Switzerland North",
      "latitude": "47.451542",
      "longitude": "8.564572"
    },
    {
      "name": "Switzerland West",
      "latitude": "46.204391",
      "longitude": "6.143158"
    },
    {
      "name": "Germany North",
      "latitude": "53.073635",
      "longitude": "8.806422"
    },
    {
      "name": "Germany West Central",
      "latitude": "50.110924",
      "longitude": "8.682127"
    },
    {
      "name": "Norway West",
      "latitude": "58.969975",
      "longitude": "5.733107"
    },
    {
      "name": "Norway East",
      "latitude": "59.913868",
      "longitude": "10.752245"
    }
  ]
}
