{
  "items": [
    {
      "name": "Japan West",
      "latitude": "34.6939",
      "longitude": "135.5022"
    },
    {
      "name": "East Asia",
      "latitude": "22.267",
      "longitude": "114.188"
    },
    {
      "name": "South East Asia",
      "latitude": "1.283",
      "longitude": "103.833"
    },
    {
      "name": "South Central US",
      "latitude": "29.4167",
      "longitude": "-98.5"
    },
    {
      "name": "West US",
      "latitude": "37.783",
      "longitude": "-122.417"
    },
    {
      "name": "East US",
      "latitude": "37.3719",
      "longitude": "-79.8164"
    },
    {
      "name": "North Central US",
      "latitude": "41.8819",
      "longitude": "-87.6278"
    },
    {
      "name": "North Europe",
      "latitude": "53.3478",
      "longitude": "-6.2597"
    },
    {
      "name": "Australia Southeast",
      "latitude": "-37.8136",
      "longitude": "144.9631"
    },
    {
      "name": "Australia East",
      "latitude": "-33.86",
      "longitude": "151.2094"
    },
    {
      "name": "Japan East",
      "latitude": "35.68",
      "longitude": "139.77"
    },
    {
      "name": "Brazil South",
      "latitude": "-23.55",
      "longitude": "-46.633"
    },
    {
      "name": "East US 2",
      "latitude": "36.6681",
      "longitude": "-78.3889"
    },
    {
      "name": "West Europe",
      "latitude": "52.3667",
      "longitude": "4.9"
    },
    {
      "name": "West Central US",
      "latitude": "40.890",
      "longitude": "-110.234"
    },
    {
      "name": "Central India",
      "latitude": "18.5822",
      "longitude": "73.9197"
    },
    {
      "name": "UK West",
      "latitude": "53.427",
      "longitude": "-3.084"
    },
    {
      "name": "West US 2",
      "latitude": "47.233",
      "longitude": "-119.852"
    },
    {
      "name": "West India",
      "latitude": "19.088",
      "longitude": "72.868"
    },
    {
      "name": "South India",
      "latitude": "12.9822",
      "longitude": "80.1636"
    },
    {
      "name": "Canada East",
      "latitude": "46.817",
      "longitude": "-71.217"
    },
    {
      "name": "Korea Central",
      "latitude": "37.5665",
      "longitude": "126.9780"
    },
    {
      "name": "Korea South",
      "latitude": "35.1796",
      "longitude": "129.0756"
    },
    {
      "name": "Central US",
      "latitude": "41.5908",
      "longitude": "-93.6208"
    },
    {
      "name": "UK South",
      "latitude": "50.941",
      "longitude": "-0.799"
    },
    {
      "name": "Canada Central",
      "latitude": "43.653",
      "longitude": "-79.383"
    },
    {
      "name": "France Central",
      "latitude": "46.3772",
      "longitude": "2.3730"
    },
    {
      "name": "Australia Central",
      "latitude": "-35.3075",
      "longitude": "149.1244"
    },
    {
      "name": "UAE North",
      "latitude": "25.266666",
      "longitude": "55.316666"
    },
    {
      "name": "UAE Central",
      "latitude": "59.913868",
      "longitude": "10.752245",
      "entitlements": [ "CDP_AZURE_IMAGE_MARKETPLACE", "CDP_AZURE_UAE_CENTRAL" ]
    },
    {
      "name": "South Africa North",
      "latitude": "-25.731340",
      "longitude": "28.218370"
    },
    {
      "name": "Switzerland North",
      "latitude": "47.451542",
      "longitude": "8.564572"
    },
    {
      "name": "Germany West Central",
      "latitude": "50.110924",
      "longitude": "8.682127"
    },
    {
      "name": "Norway East",
      "latitude": "59.913868",
      "longitude": "10.752245"
    }
  ]
}
